[
    {
        "name": "故宫博物院",
        "city": "北京",
        "lat": 39.9163,
        "lng": 116.3972,
        "stayTime": 180,
        "category": "历史文化",
        "description": "世界最大的古代宫殿建筑群，明清两代皇宫",
        "imageUrl": "https://commons.wikimedia.org/wiki/Special:FilePath/Forbidden%20City%20Beijing%20Shenwumen%20Gate.JPG",
        "reason": "北京历史文化路线的核心地标，信息密度高。",
        "tags": "世界遗产,宫殿,历史",
        "bestFor": "第一次到北京、亲子研学、历史文化爱好者",
        "tips": "热门时段需提前预约，闭馆和限流信息出行前复核。"
    },
    {
        "name": "天安门广场",
        "city": "北京",
        "lat": 39.9087,
        "lng": 116.3975,
        "stayTime": 60,
        "category": "历史文化",
        "description": "世界上最大的城市中心广场",
        "imageUrl": "https://commons.wikimedia.org/wiki/Special:FilePath/Tiananmen%20Square%20from%20Tian%27anmen%20Gate.jpg",
        "reason": "适合作为北京城市中轴线的开场。",
        "tags": "地标,城市中轴,历史",
        "bestFor": "城市地标打卡、短停留",
        "tips": "安检耗时较长，重要活动期间需复核开放安排。"
    },
    {
        "name": "颐和园",
        "city": "北京",
        "lat": 39.9999,
        "lng": 116.2755,
        "stayTime": 150,
        "category": "历史文化",
        "description": "中国现存最大的皇家园林",
        "imageUrl": "https://commons.wikimedia.org/wiki/Special:FilePath/Summer%20Palace%20Beijing%20Kunming%20Lake.jpg",
        "reason": "皇家园林与湖景结合，节奏比故宫更舒展。",
        "tags": "世界遗产,园林,湖景",
        "bestFor": "慢节奏、摄影、亲子",
        "tips": "园区较大，建议提前选择东宫门或北宫门进出。"
    },
    {
        "name": "八达岭长城",
        "city": "北京",
        "lat": 40.3597,
        "lng": 116.0204,
        "stayTime": 180,
        "category": "历史文化",
        "description": "世界文化遗产，万里长城精华段",
        "imageUrl": "https://commons.wikimedia.org/wiki/Special:FilePath/Great%20Wall%20of%20China%20Badaling.jpg",
        "reason": "长城代表段，适合第一次到北京。",
        "tags": "世界遗产,长城,登高",
        "bestFor": "地标优先、体力较好人群",
        "tips": "旺季人流大，需预留交通和排队时间。"
    },
    {
        "name": "天坛公园",
        "city": "北京",
        "lat": 39.8822,
        "lng": 116.4066,
        "stayTime": 120,
        "category": "历史文化",
        "description": "明清皇帝祭天场所",
        "imageUrl": "https://commons.wikimedia.org/wiki/Special:FilePath/Temple%20of%20Heaven%20Beijing.jpg",
        "reason": "建筑辨识度高，和中轴线主题衔接自然。",
        "tags": "世界遗产,祭祀建筑,公园",
        "bestFor": "摄影、建筑爱好者、轻松散步",
        "tips": "祈年殿等景点需确认联票和开放时间。"
    },
    {
        "name": "南锣鼓巷",
        "city": "北京",
        "lat": 39.938,
        "lng": 116.4034,
        "stayTime": 90,
        "category": "历史文化",
        "description": "北京最古老的街区之一",
        "imageUrl": "https://commons.wikimedia.org/wiki/Special:FilePath/Nanluoguxiang%20Beijing.jpg",
        "reason": "适合作为胡同文化和轻餐饮补充。",
        "tags": "胡同,街区,美食",
        "bestFor": "夜游、轻松散步、城市街区",
        "tips": "商业化较强，建议和什刹海或鼓楼组合。"
    },
    {
        "name": "簋街",
        "city": "北京",
        "lat": 39.9366,
        "lng": 116.4313,
        "stayTime": 90,
        "category": "美食",
        "description": "北京著名美食街",
        "imageUrl": "https://commons.wikimedia.org/wiki/Special:FilePath/Guijie%20Beijing.jpg",
        "reason": "适合作为晚餐和夜间补充节点。",
        "tags": "美食,夜宵,街区",
        "bestFor": "夜间餐饮、朋友出行",
        "tips": "热门餐厅排队明显，建议提前排号。"
    },
    {
        "name": "悬空寺",
        "city": "山西",
        "lat": 39.6689,
        "lng": 113.7136,
        "stayTime": 120,
        "category": "历史文化",
        "description": "建在悬崖上的千年古寺，建筑奇观",
        "imageUrl": "https://upload.wikimedia.org/wikipedia/commons/b/b0/Hanging_Monastery_near_Datong%2C_China_01.JPG",
        "reason": "视觉冲击强，是山西古建路线最有辨识度的节点之一。",
        "tags": "古建,悬崖寺庙,拍照",
        "bestFor": "第一次到山西、建筑爱好者、摄影",
        "tips": "登临区域可能限流，出行前复核开放和预约状态。"
    },
    {
        "name": "云冈石窟",
        "city": "山西",
        "lat": 40.1106,
        "lng": 113.132,
        "stayTime": 180,
        "category": "历史文化",
        "description": "世界文化遗产，佛教艺术宝库",
        "imageUrl": "https://upload.wikimedia.org/wikipedia/commons/5/56/Yungang_Grottoes_03.2025._2.jpg",
        "reason": "世界遗产级别高，适合作为大同线的核心。",
        "tags": "世界遗产,石窟,佛教艺术",
        "bestFor": "历史文化爱好者、研学、第一次到访",
        "tips": "石窟讲解很重要，建议预留半天并复核开放时间。"
    },
    {
        "name": "平遥古城",
        "city": "山西",
        "lat": 37.2021,
        "lng": 112.1784,
        "stayTime": 240,
        "category": "历史文化",
        "description": "中国保存最完整的明清古城",
        "imageUrl": "https://upload.wikimedia.org/wikipedia/commons/5/52/1_pingyao_ancient_city_aerial_pano_2019.jpg",
        "reason": "古城生活感和晋商文化集中，适合慢游和住宿。",
        "tags": "世界遗产,古城,晋商",
        "bestFor": "慢节奏、夜游、古城住宿",
        "tips": "古城内步行为主，旺季住宿和门票需提前确认。"
    },
    {
        "name": "五台山",
        "city": "山西",
        "lat": 39.0136,
        "lng": 113.5902,
        "stayTime": 300,
        "category": "自然风光",
        "description": "中国四大佛教名山之首",
        "imageUrl": "https://commons.wikimedia.org/wiki/Special:FilePath/Wutai%20Shan.jpg",
        "reason": "兼具佛教文化和山地风景，适合深度线。",
        "tags": "佛教名山,自然风光,朝圣",
        "bestFor": "深度旅行、佛教文化、避暑",
        "tips": "景区范围大，天气变化快，建议预留整天。"
    },
    {
        "name": "壶口瀑布",
        "city": "山西",
        "lat": 36.1477,
        "lng": 110.4436,
        "stayTime": 120,
        "category": "自然风光",
        "description": "黄河上最大的瀑布，气势磅礴",
        "imageUrl": "https://commons.wikimedia.org/wiki/Special:FilePath/Hukou%20Waterfall.jpg",
        "reason": "自然景观冲击强，适合作为非古建路线的补充。",
        "tags": "黄河,瀑布,自然风光",
        "bestFor": "自然风光爱好者、自驾",
        "tips": "距离主要古建线较远，适合单独安排或多日自驾。"
    },
    {
        "name": "乔家大院",
        "city": "山西",
        "lat": 37.3542,
        "lng": 112.4311,
        "stayTime": 120,
        "category": "历史文化",
        "description": "晋商大院代表建筑",
        "imageUrl": "https://upload.wikimedia.org/wikipedia/commons/e/ef/Qiao_Family_Compound.jpg",
        "reason": "晋商宅院代表，和晋祠、平遥能组成中部文化线。",
        "tags": "晋商,大院,古建",
        "bestFor": "家庭、晋商文化、轻松参观",
        "tips": "商业化程度较高，可与平遥或晋祠组合取舍。"
    },
    {
        "name": "应县木塔",
        "city": "山西",
        "lat": 39.5681,
        "lng": 113.1916,
        "stayTime": 90,
        "category": "历史文化",
        "description": "世界最高的木结构塔",
        "imageUrl": "https://upload.wikimedia.org/wikipedia/commons/1/19/Liao_Sakyamuni_Pagoda_%289834213735%29.jpg",
        "reason": "辽代木构代表，适合古建主题深度游。",
        "tags": "木构,古塔,辽代建筑",
        "bestFor": "古建爱好者、深度游",
        "tips": "部分区域可能因保护限制参观，出行前复核。"
    },
    {
        "name": "晋祠",
        "city": "山西",
        "lat": 37.7089,
        "lng": 112.4291,
        "stayTime": 120,
        "category": "历史文化",
        "description": "中国现存最早的皇家园林",
        "imageUrl": "https://upload.wikimedia.org/wikipedia/commons/9/9d/Jinci_Temple_%2854572159327%29.jpg",
        "reason": "太原近郊高质量古建节点，交通相对友好。",
        "tags": "古建,园林,太原近郊",
        "bestFor": "轻松半日、太原落地首站",
        "tips": "可作为抵达或返程日安排，注意博物馆开放时间。"
    },
    {
        "name": "华严寺",
        "city": "山西",
        "lat": 40.0885,
        "lng": 113.2885,
        "stayTime": 120,
        "category": "历史文化",
        "description": "辽金时期皇家寺院，中国现存较完整的辽金寺庙建筑群",
        "imageUrl": "https://upload.wikimedia.org/wikipedia/commons/8/8f/Huayan_Temple%2C_Datong.jpg",
        "reason": "大同市区内高质量古建，和云冈石窟动线自然。",
        "tags": "辽金古建,寺庙,大同",
        "bestFor": "大同市区半日、古建爱好者",
        "tips": "适合与善化寺、大同古城墙组合。"
    },
    {
        "name": "善化寺",
        "city": "山西",
        "lat": 40.0834,
        "lng": 113.2961,
        "stayTime": 90,
        "category": "历史文化",
        "description": "辽金建筑遗存集中，是大同古建路线的重要节点",
        "imageUrl": "https://upload.wikimedia.org/wikipedia/commons/4/4d/Shanhua_Temple_Datong.jpg",
        "reason": "游人相对少，适合补齐大同古建线。",
        "tags": "辽金古建,寺庙,安静",
        "bestFor": "深度古建、避开拥挤",
        "tips": "可作为华严寺后的顺路补充。"
    },
    {
        "name": "大同古城墙",
        "city": "山西",
        "lat": 40.0758,
        "lng": 113.2975,
        "stayTime": 90,
        "category": "历史文化",
        "description": "大同古城防御体系，适合俯瞰城市格局",
        "imageUrl": "https://upload.wikimedia.org/wikipedia/commons/7/74/Datong_City_Wall.jpg",
        "reason": "作为大同市区收尾很合适，夜景体验较好。",
        "tags": "古城墙,夜景,城市格局",
        "bestFor": "夜游、摄影、城市漫步",
        "tips": "开放时间随季节变化，夜游需提前确认。"
    },
    {
        "name": "日升昌票号",
        "city": "山西",
        "lat": 37.201,
        "lng": 112.1764,
        "stayTime": 75,
        "category": "历史文化",
        "description": "中国早期票号代表，展示晋商金融文化",
        "imageUrl": "https://commons.wikimedia.org/wiki/Special:FilePath/Rishengchang%20Exchange%20Shop.jpg",
        "reason": "在平遥古城内，适合补充晋商文化脉络。",
        "tags": "晋商,票号,古城",
        "bestFor": "平遥深度游、历史文化",
        "tips": "建议和古城墙、县衙联票信息一起复核。"
    },
    {
        "name": "王家大院",
        "city": "山西",
        "lat": 36.8963,
        "lng": 111.9827,
        "stayTime": 150,
        "category": "历史文化",
        "description": "规模宏大的晋商宅院建筑群",
        "imageUrl": "https://upload.wikimedia.org/wikipedia/commons/f/f1/Wang_Family_Compound.jpg",
        "reason": "比乔家大院更大，适合想看宅院建筑细节的用户。",
        "tags": "晋商,大院,古建",
        "bestFor": "建筑细节、深度晋商路线",
        "tips": "与平遥相距不远，但参观耗时较长。"
    },
    {
        "name": "太行山大峡谷八泉峡景区",
        "city": "长治",
        "lat": 35.944633,
        "lng": 113.566844,
        "stayTime": 300,
        "category": "自然风光",
        "description": "长治壶关太行山大峡谷核心景区，峡谷、游船、索道和观景平台组合体验强。",
        "imageUrl": "https://commons.wikimedia.org/wiki/Special:FilePath/Taihang_Mountains.jpg",
        "reason": "长治最有辨识度的自然景观之一，适合作为北京到长治多日游的核心全天节点。",
        "tags": "5A景区,峡谷,山水,长治",
        "bestFor": "自然风光、摄影、轻徒步、第一次到长治",
        "tips": "坐标参考高德公开地点页的八泉峡售票处；索道、游船、门票和天气需出行前复核。"
    },
    {
        "name": "太行山大峡谷八泉峡玻璃栈道",
        "city": "长治",
        "lat": 35.949921,
        "lng": 113.564692,
        "stayTime": 90,
        "category": "自然风光",
        "description": "位于太行山大峡谷八泉峡景区内的高空观景体验点。",
        "imageUrl": "https://commons.wikimedia.org/wiki/Special:FilePath/Taihang_Mountains.jpg",
        "reason": "可作为八泉峡景区内部的高空视角补充，但不宜单独脱离八泉峡安排。",
        "tags": "玻璃栈道,观景,峡谷",
        "bestFor": "摄影、登高观景、轻刺激体验",
        "tips": "坐标参考高德公开地点页；恶劣天气或维护时可能关闭。"
    },
    {
        "name": "八路军太行纪念馆",
        "city": "长治",
        "lat": 36.834098,
        "lng": 112.855476,
        "stayTime": 150,
        "category": "历史文化",
        "description": "位于长治武乡县太行西街的红色旅游纪念馆，集中展示八路军抗战历史。",
        "imageUrl": "https://commons.wikimedia.org/wiki/Special:FilePath/Eighth_Route_Army_Memorial_Hall.jpg",
        "reason": "长治红色历史文化路线的高价值节点，适合与武乡县周边行程组合。",
        "tags": "红色旅游,纪念馆,抗战历史",
        "bestFor": "历史文化、亲子研学、红色旅游",
        "tips": "坐标参考高德公开地点页；开放时间、讲解场次和展陈调整需出行前复核。"
    },
    {
        "name": "上党门",
        "city": "长治",
        "lat": 36.1957,
        "lng": 113.1136,
        "stayTime": 60,
        "category": "历史文化",
        "description": "长治老城标志性古建，位于府坡街一带，是古上党郡署和潞安府衙历史空间的重要入口。",
        "imageUrl": "https://commons.wikimedia.org/wiki/Special:FilePath/Changzhi.jpg",
        "reason": "市区短停留友好，适合作为抵达日或晚间老城步行线起点。",
        "tags": "古建,城市地标,老城",
        "bestFor": "城市漫步、古建入门、短停留",
        "tips": "坐标为老城片区近似点位，现场入口和开放状态需以地图导航复核。"
    },
    {
        "name": "潞安府城隍庙",
        "city": "长治",
        "lat": 36.1948,
        "lng": 113.1191,
        "stayTime": 90,
        "category": "历史文化",
        "description": "长治潞州区大北街庙道巷的全国重点文物保护单位，保留元明清多时期建筑。",
        "imageUrl": "https://commons.wikimedia.org/wiki/Special:FilePath/Changzhi.jpg",
        "reason": "适合补充长治市区古建主题，与上党门、老城街区顺路。",
        "tags": "全国重点文保,古建,城隍庙",
        "bestFor": "古建爱好者、历史文化、城市漫步",
        "tips": "位置和开放信息来自公开旅游资料整理，门票和开放时间需出行前复核。"
    },
    {
        "name": "观音堂",
        "city": "长治",
        "lat": 36.2309,
        "lng": 113.0852,
        "stayTime": 75,
        "category": "历史文化",
        "description": "长治市区近郊古建节点，以彩塑和明清建筑价值见长。",
        "imageUrl": "https://commons.wikimedia.org/wiki/Special:FilePath/Changzhi.jpg",
        "reason": "适合古建深度用户，从市区出发可与上党门、潞安府城隍庙组合。",
        "tags": "古建,彩塑,近郊",
        "bestFor": "古建爱好者、深度游",
        "tips": "近似坐标用于地图初始标注，具体导航入口和开放状态需复核。"
    },
    {
        "name": "漳泽湖国家城市湿地公园",
        "city": "长治",
        "lat": 36.253,
        "lng": 113.073,
        "stayTime": 120,
        "category": "自然风光",
        "description": "长治市区北侧的大型湿地湖区，适合低强度散步、骑行和傍晚休整。",
        "imageUrl": "https://commons.wikimedia.org/wiki/Special:FilePath/Lake.jpg",
        "reason": "可作为城市休闲和长距离景区日后的轻松补充，改善行程节奏。",
        "tags": "湿地,湖景,城市休闲",
        "bestFor": "亲子、慢节奏、傍晚散步",
        "tips": "天气和季节体验差异明显，夜间返程交通需提前确认。"
    },
    {
        "name": "通天峡风景区",
        "city": "长治",
        "lat": 36.097,
        "lng": 113.585,
        "stayTime": 240,
        "category": "自然风光",
        "description": "位于长治平顺方向的峡谷型景区，瀑布、绝壁和山水景观组合明显。",
        "imageUrl": "https://commons.wikimedia.org/wiki/Special:FilePath/Taihang_Mountains.jpg",
        "reason": "适合自然风光偏好用户作为八泉峡之外的备选或第二自然景观日。",
        "tags": "峡谷,瀑布,自然风光",
        "bestFor": "自然风光、避暑、自驾",
        "tips": "近似坐标用于路线规划，山路车程和景区开放状态需出行前复核。"
    },
    {
        "name": "长治潞州区老城餐饮候选区",
        "city": "长治",
        "lat": 36.195,
        "lng": 113.116,
        "stayTime": 90,
        "category": "餐饮",
        "description": "以上党门、潞安府城隍庙周边老城街区为餐饮复核范围，适合筛选甩饼、羊汤、上党菜、晋菜等本地口味。",
        "imageUrl": "https://commons.wikimedia.org/wiki/Special:FilePath/Changzhi.jpg",
        "reason": "高德 WebService Key 不可用或社交平台正文不可抓取时，用作餐饮地图锚点；具体餐厅必须按实时地图和点评平台复核。",
        "tags": "餐饮,晋菜,上党菜,老城,长治",
        "bestFor": "午餐、晚餐、本地特色餐饮复核",
        "tips": "这是餐饮候选区域，不是具体餐厅；需在出行前用高德/大众点评/美团按营业状态和评分筛选。"
    },
    {
        "name": "长治潞州区早餐候选区",
        "city": "长治",
        "lat": 36.1972,
        "lng": 113.1128,
        "stayTime": 60,
        "category": "餐饮",
        "description": "长治市区早餐复核范围，优先查找甩饼、羊汤、豆腐脑、地方面食等本地早餐。",
        "imageUrl": "https://commons.wikimedia.org/wiki/Special:FilePath/Changzhi.jpg",
        "reason": "补齐每天早晨的真实落地点，不把出发地餐饮或其它城市餐饮混入路线。",
        "tags": "早餐,甩饼,羊汤,面食,长治",
        "bestFor": "早餐、赶路前补给",
        "tips": "早餐营业时间变化大，需按住宿点附近实时地图复核。"
    },
    {
        "name": "壶关太行山大峡谷餐饮候选区",
        "city": "长治",
        "lat": 35.958,
        "lng": 113.577,
        "stayTime": 90,
        "category": "餐饮",
        "description": "八泉峡、太行山大峡谷景区出入口周边餐饮复核范围，适合景区日午餐或返程前补给。",
        "imageUrl": "https://commons.wikimedia.org/wiki/Special:FilePath/Taihang_Mountains.jpg",
        "reason": "景区日不宜跨城折返用餐，用近景区餐饮范围保障行程可执行。",
        "tags": "餐饮,景区周边,八泉峡,太行山大峡谷",
        "bestFor": "景区日午餐、轻补给",
        "tips": "景区周边餐厅季节性强，出发前必须复核营业状态、排队和停车。"
    },
    {
        "name": "长治潞州区市中心住宿候选区",
        "city": "长治",
        "lat": 36.195,
        "lng": 113.116,
        "stayTime": 0,
        "category": "住宿",
        "description": "长治市中心住宿复核范围，便于衔接上党门、潞安府城隍庙、观音堂和长治东站方向。",
        "imageUrl": "https://commons.wikimedia.org/wiki/Special:FilePath/Changzhi.jpg",
        "reason": "提供住宿区域锚点，避免在酒店数据不足时生成虚构酒店名。",
        "tags": "住宿,市中心,潞州区,交通便利",
        "bestFor": "首次到长治、三日游基地住宿",
        "tips": "这是住宿候选区域，不是具体酒店；需按 OTA 实时价格、评分、停车和退改政策筛选。"
    },
    {
        "name": "长治东站住宿候选区",
        "city": "长治",
        "lat": 36.1895,
        "lng": 113.168,
        "stayTime": 0,
        "category": "住宿",
        "description": "长治东站周边住宿复核范围，适合北京高铁抵达或返程前后减少交通不确定性。",
        "imageUrl": "https://commons.wikimedia.org/wiki/Special:FilePath/Changzhi.jpg",
        "reason": "补齐北京到长治交通衔接场景下的住宿可用性。",
        "tags": "住宿,高铁站,交通衔接,长治东站",
        "bestFor": "晚到、早返、行李较多",
        "tips": "站区周边夜间餐饮和打车供给需实时复核。"
    },
    {
        "name": "壶关太行山大峡谷住宿候选区",
        "city": "长治",
        "lat": 35.958,
        "lng": 113.577,
        "stayTime": 0,
        "category": "住宿",
        "description": "壶关太行山大峡谷周边住宿复核范围，适合八泉峡或通天峡景区日前后减少市区往返。",
        "imageUrl": "https://commons.wikimedia.org/wiki/Special:FilePath/Taihang_Mountains.jpg",
        "reason": "为山路景区日提供住宿区域锚点，不虚构具体民宿或酒店。",
        "tags": "住宿,景区周边,壶关,八泉峡",
        "bestFor": "自驾、包车、自然风光深度游",
        "tips": "景区住宿淡旺季差异大，预订前复核营业、热水、停车、退改政策。"
    }
]
